{"type": "FeatureCollection", "features": [{"type": "Feature", "geometry": {"type": "Point", "coordinates": [-74.25851709688506, 33.73432617025412]}, "properties": {"store_id": "STORE001", "store_name": "Store 1", "city": "Chicago", "state": "NY", "country": "USA", "store_type": "Flagship", "total_brands_carried": 21, "avg_daily_revenue": 49825.45300661222, "revenue_vs_region_avg": 1.1142210545972595}}, {"type": "Feature", "geometry": {"type": "Point", "coordinates": [-89.20899198511539, 27.71214853705967]}, "properties": {"store_id": "STORE002", "store_name": "Store 2", "city": "Los Angeles", "state": "TX", "country": "USA", "store_type": "Outlet", "total_brands_carried": 53, "avg_daily_revenue": 42518.89591993756, "revenue_vs_region_avg": 1.9671234871689838}}, {"type": "Feature", "geometry": {"type": "Point", "coordinates": [-104.99256050345228, 31.39054844523806]}, "properties": {"store_id": "STORE003", "store_name": "Store 3", "city": "Chicago", "state": "FL", "country": "USA", "store_type": "Outlet", "total_brands_carried": 70, "avg_daily_revenue": 22770.23670429602, "revenue_vs_region_avg": 1.1544885795647142}}, {"type": "Feature", "geometry": {"type": "Point", "coordinates": [-71.13942879536016, 45.77060059987748]}, "properties": {"store_id": "STORE004", "store_name": "Store 4", "city": "San Francisco", "state": "CA", "country": "USA", "store_type": "Mall", "total_brands_carried": 35, "avg_daily_revenue": 27268.272565477688, "revenue_vs_region_avg": 1.228345766613487}}, {"type": "Feature", "geometry": {"type": "Point", "coordinates": [-87.65596654237007, 41.12142758257785]}, "properties": {"store_id": "STORE005", "store_name": "Store 5", "city": "San Francisco", "state": "FL", "country": "USA", "store_type": "Street", "total_brands_carried": 85, "avg_daily_revenue": 45870.22599027224, "revenue_vs_region_avg": 0.5274296992789258}}, {"type": "Feature", "geometry": {"type": "Point", "coordinates": [-85.15932056759152, 28.188103247258518]}, "properties": {"store_id": "STORE006", "store_name": "Store 6", "city": "Miami", "state": "CA", "country": "USA", "store_type": "Flagship", "total_brands_carried": 99, "avg_daily_revenue": 36366.80274789729, "revenue_vs_region_avg": 0.6303342538291085}}, {"type": "Feature", "geometry": {"type": "Point", "coordinates": [-112.22989838961281, 28.485067699287065]}, "properties": {"store_id": "STORE007", "store_name": "Store 7", "city": "Dallas", "state": "NY", "country": "USA", "store_type": "Street", "total_brands_carried": 11, "avg_daily_revenue": 12295.241072982551, "revenue_vs_region_avg": 1.9848016924603693}}, {"type": "Feature", "geometry": {"type": "Point", "coordinates": [-92.00366289655503, 44.78774360231041]}, "properties": {"store_id": "STORE008", "store_name": "Store 8", "city": "Miami", "state": "IL", "country": "USA", "store_type": "Street", "total_brands_carried": 46, "avg_daily_revenue": 17993.313700621482, "revenue_vs_region_avg": 0.679589221988}}, {"type": "Feature", "geometry": {"type": "Point", "coordinates": [-89.4903102151604, 44.98544771442066]}, "properties": {"store_id": "STORE009", "store_name": "Store 9", "city": "Miami", "state": "CA", "country": "USA", "store_type": "Street", "total_brands_carried": 46, "avg_daily_revenue": 23737.513737605244, "revenue_vs_region_avg": 1.1398680562055972}}, {"type": "Feature", "geometry": {"type": "Point", "coordinates": [-113.50562870860358, 44.70060121180436]}, "properties": {"store_id": "STORE010", "store_name": "Store 10", "city": "Chicago", "state": "NY", "country": "USA", "store_type": "Outlet", "total_brands_carried": 40, "avg_daily_revenue": 47248.90701780207, "revenue_vs_region_avg": 1.731800643156204}}, {"type": "Feature", "geometry": {"type": "Point", "coordinates": [-85.68869758524184, 39.298183845401454]}, "properties": {"store_id": "STORE011", "store_name": "Store 11", "city": "San Francisco", "state": "IL", "country": "USA", "store_type": "Flagship", "total_brands_carried": 67, "avg_daily_revenue": 37725.33689133193, "revenue_vs_region_avg": 0.9361814998622464}}, {"type": "Feature", "geometry": {"type": "Point", "coordinates": [-119.03604709473366, 43.55241300382859]}, "properties": {"store_id": "STORE012", "store_name": "Store 12", "city": "Chicago", "state": "NY", "country": "USA", "store_type": "Street", "total_brands_carried": 50, "avg_daily_revenue": 30797.10709187509, "revenue_vs_region_avg": 1.6672138508636425}}, {"type": "Feature", "geometry": {"type": "Point", "coordinates": [-78.03453033067592, 35.75648678071905]}, "properties": {"store_id": "STORE013", "store_name": "Store 13", "city": "San Francisco", "state": "NY", "country": "USA", "store_type": "Flagship", "total_brands_carried": 78, "avg_daily_revenue": 32906.74417150693, "revenue_vs_region_avg": 1.4715806467232888}}, {"type": "Feature", "geometry": {"type": "Point", "coordinates": [-115.05773825343533, 37.790103624804736]}, "properties": {"store_id": "STORE014", "store_name": "Store 14", "city": "Dallas", "state": "NY", "country": "USA", "store_type": "Mall", "total_brands_carried": 27, "avg_daily_revenue": 40808.32257503466, "revenue_vs_region_avg": 0.699561911611482}}, {"type": "Feature", "geometry": {"type": "Point", "coordinates": [-75.12219803311797, 46.55786543104501]}, "properties": {"store_id": "STORE015", "store_name": "Store 15", "city": "Los Angeles", "state": "CA", "country": "USA", "store_type": "Outlet", "total_brands_carried": 23, "avg_daily_revenue": 46059.486727331576, "revenue_vs_region_avg": 1.4245921831511343}}, {"type": "Feature", "geometry": {"type": "Point", "coordinates": [-109.22111460375429, 44.85661428118784]}, "properties": {"store_id": "STORE016", "store_name": "Store 16", "city": "Chicago", "state": "IL", "country": "USA", "store_type": "Mall", "total_brands_carried": 49, "avg_daily_revenue": 45491.24846281186, "revenue_vs_region_avg": 1.573797853407664}}, {"type": "Feature", "geometry": {"type": "Point", "coordinates": [-104.2742644437571, 43.39835753461301]}, "properties": {"store_id": "STORE017", "store_name": "Store 17", "city": "San Francisco", "state": "NY", "country": "USA", "store_type": "Street", "total_brands_carried": 97, "avg_daily_revenue": 37541.20596892481, "revenue_vs_region_avg": 1.9095655999905823}}, {"type": "Feature", "geometry": {"type": "Point", "coordinates": [-85.82440565997581, 27.476576900495477]}, "properties": {"store_id": "STORE018", "store_name": "Store 18", "city": "Dallas", "state": "TX", "country": "USA", "store_type": "Flagship", "total_brands_carried": 44, "avg_daily_revenue": 14320.65152520928, "revenue_vs_region_avg": 1.2464609624003362}}, {"type": "Feature", "geometry": {"type": "Point", "coordinates": [-117.45101347855942, 43.46074111949084]}, "properties": {"store_id": "STORE019", "store_name": "Store 19", "city": "Chicago", "state": "NY", "country": "USA", "store_type": "Flagship", "total_brands_carried": 95, "avg_daily_revenue": 21338.652577870114, "revenue_vs_region_avg": 1.3350137002300297}}, {"type": "Feature", "geometry": {"type": "Point", "coordinates": [-73.7611840443207, 33.41401952032946]}, "properties": {"store_id": "STORE020", "store_name": "Store 20", "city": "Chicago", "state": "FL", "country": "USA", "store_type": "Flagship", "total_brands_carried": 79, "avg_daily_revenue": 29745.78485624542, "revenue_vs_region_avg": 1.8723246945554746}}, {"type": "Feature", "geometry": {"type": "Point", "coordinates": [-117.2699084256816, 45.36018664617136]}, "properties": {"store_id": "STORE021", "store_name": "Store 21", "city": "Dallas", "state": "IL", "country": "USA", "store_type": "Flagship", "total_brands_carried": 55, "avg_daily_revenue": 7747.202365070851, "revenue_vs_region_avg": 1.4498137191452067}}, {"type": "Feature", "geometry": {"type": "Point", "coordinates": [-85.30463815274459, 29.870987008387104]}, "properties": {"store_id": "STORE022", "store_name": "Store 22", "city": "Dallas", "state": "NY", "country": "USA", "store_type": "Mall", "total_brands_carried": 88, "avg_daily_revenue": 35603.99288729394, "revenue_vs_region_avg": 0.6508080296444334}}, {"type": "Feature", "geometry": {"type": "Point", "coordinates": [-96.19357867783759, 33.015615692720836]}, "properties": {"store_id": "STORE023", "store_name": "Store 23", "city": "Dallas", "state": "TX", "country": "USA", "store_type": "Outlet", "total_brands_carried": 73, "avg_daily_revenue": 35501.139908295874, "revenue_vs_region_avg": 0.7894177204326844}}, {"type": "Feature", "geometry": {"type": "Point", "coordinates": [-118.40510963789752, 30.39703764906826]}, "properties": {"store_id": "STORE024", "store_name": "Store 24", "city": "Miami", "state": "FL", "country": "USA", "store_type": "Mall", "total_brands_carried": 42, "avg_daily_revenue": 20178.446681108784, "revenue_vs_region_avg": 0.570168064797449}}, {"type": "Feature", "geometry": {"type": "Point", "coordinates": [-79.48590658774171, 41.42512177636886]}, "properties": {"store_id": "STORE025", "store_name": "Store 25", "city": "San Francisco", "state": "NY", "country": "USA", "store_type": "Street", "total_brands_carried": 42, "avg_daily_revenue": 17206.375493706197, "revenue_vs_region_avg": 1.0811696899460856}}, {"type": "Feature", "geometry": {"type": "Point", "coordinates": [-86.98179828302062, 43.85180165341204]}, "properties": {"store_id": "STORE026", "store_name": "Store 26", "city": "Chicago", "state": "TX", "country": "USA", "store_type": "Street", "total_brands_carried": 42, "avg_daily_revenue": 45024.39573997316, "revenue_vs_region_avg": 1.4069664160176032}}, {"type": "Feature", "geometry": {"type": "Point", "coordinates": [-100.21154069263493, 30.289983289477036]}, "properties": {"store_id": "STORE027", "store_name": "Store 27", "city": "New York", "state": "IL", "country": "USA", "store_type": "Street", "total_brands_carried": 25, "avg_daily_revenue": 33283.45077703575, "revenue_vs_region_avg": 1.053482230574827}}, {"type": "Feature", "geometry": {"type": "Point", "coordinates": [-76.96703464507343, 46.725502682272925]}, "properties": {"store_id": "STORE028", "store_name": "Store 28", "city": "Los Angeles", "state": "NY", "country": "USA", "store_type": "Flagship", "total_brands_carried": 93, "avg_daily_revenue": 44576.68987847958, "revenue_vs_region_avg": 0.6904658949874527}}, {"type": "Feature", "geometry": {"type": "Point", "coordinates": [-111.05723535115911, 42.69802462500298]}, "properties": {"store_id": "STORE029", "store_name": "Store 29", "city": "Miami", "state": "FL", "country": "USA", "store_type": "Street", "total_brands_carried": 94, "avg_daily_revenue": 6002.686757168933, "revenue_vs_region_avg": 1.1284184632613246}}, {"type": "Feature", "geometry": {"type": "Point", "coordinates": [-92.0588682221074, 30.450248951440688]}, "properties": {"store_id": "STORE030", "store_name": "Store 30", "city": "Dallas", "state": "CA", "country": "USA", "store_type": "Mall", "total_brands_carried": 26, "avg_daily_revenue": 31890.286617898608, "revenue_vs_region_avg": 1.7128556489457534}}, {"type": "Feature", "geometry": {"type": "Point", "coordinates": [-75.96832927708013, 32.91331322751859]}, "properties": {"store_id": "STORE031", "store_name": "Store 31", "city": "New York", "state": "TX", "country": "USA", "store_type": "Flagship", "total_brands_carried": 73, "avg_daily_revenue": 7728.015324342626, "revenue_vs_region_avg": 0.5932999086607842}}, {"type": "Feature", "geometry": {"type": "Point", "coordinates": [-90.21628999233634, 27.04900457829484]}, "properties": {"store_id": "STORE032", "store_name": "Store 32", "city": "San Francisco", "state": "IL", "country": "USA", "store_type": "Street", "total_brands_carried": 98, "avg_daily_revenue": 7297.915620183503, "revenue_vs_region_avg": 1.8724391027923286}}, {"type": "Feature", "geometry": {"type": "Point", "coordinates": [-80.7214285513852, 48.45457109191573]}, "properties": {"store_id": "STORE033", "store_name": "Store 33", "city": "Miami", "state": "NY", "country": "USA", "store_type": "Flagship", "total_brands_carried": 61, "avg_daily_revenue": 40675.522427974036, "revenue_vs_region_avg": 0.6461533974670788}}, {"type": "Feature", "geometry": {"type": "Point", "coordinates": [-77.24617331411152, 35.675825719971485]}, "properties": {"store_id": "STORE034", "store_name": "Store 34", "city": "New York", "state": "CA", "country": "USA", "store_type": "Street", "total_brands_carried": 84, "avg_daily_revenue": 33432.2590862269, "revenue_vs_region_avg": 1.893639318592208}}, {"type": "Feature", "geometry": {"type": "Point", "coordinates": [-76.12691011844797, 35.94564310968626]}, "properties": {"store_id": "STORE035", "store_name": "Store 35", "city": "San Francisco", "state": "TX", "country": "USA", "store_type": "Mall", "total_brands_carried": 27, "avg_daily_revenue": 26583.563083471032, "revenue_vs_region_avg": 1.4002697191169853}}, {"type": "Feature", "geometry": {"type": "Point", "coordinates": [-70.4469085524574, 46.663017475542844]}, "properties": {"store_id": "STORE036", "store_name": "Store 36", "city": "San Francisco", "state": "FL", "country": "USA", "store_type": "Street", "total_brands_carried": 43, "avg_daily_revenue": 28519.0706005137, "revenue_vs_region_avg": 0.7058879368905602}}, {"type": "Feature", "geometry": {"type": "Point", "coordinates": [-88.8732261998481, 30.796184673412338]}, "properties": {"store_id": "STORE037", "store_name": "Store 37", "city": "Chicago", "state": "CA", "country": "USA", "store_type": "Mall", "total_brands_carried": 32, "avg_daily_revenue": 35063.35083253433, "revenue_vs_region_avg": 0.862394730245333}}, {"type": "Feature", "geometry": {"type": "Point", "coordinates": [-70.21548624251204, 42.54435749552283]}, "properties": {"store_id": "STORE038", "store_name": "Store 38", "city": "Chicago", "state": "FL", "country": "USA", "store_type": "Mall", "total_brands_carried": 49, "avg_daily_revenue": 46076.9264798638, "revenue_vs_region_avg": 1.1225967503310295}}, {"type": "Feature", "geometry": {"type": "Point", "coordinates": [-108.85539603848528, 29.199688022367766]}, "properties": {"store_id": "STORE039", "store_name": "Store 39", "city": "San Francisco", "state": "IL", "country": "USA", "store_type": "Outlet", "total_brands_carried": 68, "avg_daily_revenue": 14848.534606087507, "revenue_vs_region_avg": 1.8081831091776825}}, {"type": "Feature", "geometry": {"type": "Point", "coordinates": [-85.68071577528427, 37.69060685391551]}, "properties": {"store_id": "STORE040", "store_name": "Store 40", "city": "San Francisco", "state": "NY", "country": "USA", "store_type": "Outlet", "total_brands_carried": 80, "avg_daily_revenue": 33405.11935928489, "revenue_vs_region_avg": 1.7937258651950996}}]}